[
  {
    "ID": 1,
    "Name": "ATX DAO",
    "Twitter": "https://twitter.com/ATXDAO",
    "Website": "https://www.atxdao.com/",
    "City": "Austin, Texas",
    "Longitude": -97.7436995,
    "Latitude": 30.2711286,
    "Avatar": "atxdao.jpeg"
  },
  {
    "ID": 2,
    "Name": "The Boston DAO",
    "Twitter": "https://twitter.com/TheBostonDAO",
    "Website": "https://www.thebostondao.com/",
    "City": "Boston, Massachusetts",
    "Longitude": -71.060511,
    "Latitude": 42.3554334,
    "Avatar": ""
  },
  {
    "ID": 3,
    "Name": "404 DAO",
    "Twitter": "https://twitter.com/404DAO",
    "Website": "https://www.404dao.io/",
    "City": "Atlanta, Georgia",
    "Longitude": -84.3902644,
    "Latitude": 33.7489924,
    "Avatar": "404dao.jpeg"
  },
  {
    "ID": 4,
    "Name": "CityDAO",
    "Twitter": "https://twitter.com/CityDAO",
    "Website": "https://citydao.io",
    "City": "Clark, Wyoming",
    "Longitude": -109.1506661,
    "Latitude": 44.8929964,
    "Avatar": "citydao.jpeg"
  },
  {
    "ID": 5,
    "Name": "KC DAO",
    "Twitter": "https://twitter.com/KansasCityDAO",
    "Website": "",
    "City": "Kansas City, Missouri ",
    "Longitude": -94.5781416,
    "Latitude": 39.100105,
    "Avatar": ""
  },
  {
    "ID": 6,
    "Name": "Santa Fe NFT",
    "Twitter": "https://twitter.com/SantaFeNFT",
    "Website": "https://santafenft.io/",
    "City": "Santa Fe, New Mexico",
    "Longitude": -105.938456,
    "Latitude": 35.6876096,
    "Avatar": "santafenft.jpeg"
  },
  {
    "ID": 7,
    "Name": "YVR DAO",
    "Twitter": "https://twitter.com/yvrdao",
    "Website": "https://yvrdao.com/",
    "City": "Vancouver, Canada",
    "Longitude": -123.113952,
    "Latitude": 49.2608724,
    "Avatar": ""
  },
  {
    "ID": 8,
    "Name": "LionCityDAO",
    "Twitter": "https://twitter.com/LionCityDAO",
    "Website": "",
    "City": "Singapore",
    "Longitude": 103.8519072,
    "Latitude": 1.2899175,
    "Avatar": ""
  },
  {
    "ID": 9,
    "Name": "DAOBrussels",
    "Twitter": "https://twitter.com/daobrussels",
    "Website": "https://dao.brussels/",
    "City": "Brussels, Belgium",
    "Longitude": 4.351697,
    "Latitude": 50.8465573,
    "Avatar": ""
  },
  {
    "ID": 10,
    "Name": "BairesDAO",
    "Twitter": "https://twitter.com/bairesdao",
    "Website": "",
    "City": "Buenos Aires, Argentina",
    "Longitude": -58.4370894,
    "Latitude": -34.6075682,
    "Avatar": ""
  },
  {
    "ID": 11,
    "Name": "The Nieux Society",
    "Twitter": "https://twitter.com/NieuxSociety",
    "Website": "https://www.nieux.xyz/",
    "City": "New Orleans, Louisiana\n",
    "Longitude": -90.0782127,
    "Latitude": 29.9759983,
    "Avatar": ""
  },
  {
    "ID": 12,
    "Name": "Tampa Bay DAO",
    "Twitter": "https://twitter.com/tampabaydao",
    "Website": "https://tampabaydao.com/",
    "City": "Tampa Bay, Florida",
    "Longitude": -82.458444,
    "Latitude": 27.9477595,
    "Avatar": ""
  },
  {
    "ID": 13,
    "Name": "IranDAO",
    "Twitter": "https://twitter.com/iran__dao",
    "Website": "https://www.irandao.xyz/",
    "City": "Tehran, Iran",
    "Longitude": 51.3896004,
    "Latitude": 35.6892523,
    "Avatar": ""
  },
  {
    "ID": 14,
    "Name": "Ukraine DAO",
    "Twitter": "https://twitter.com/Ukraine_DAO",
    "Website": "https://linktr.ee/ukrainedao",
    "City": "Kiev, Ukraine",
    "Longitude": 30.5241361,
    "Latitude": 50.4500336,
    "Avatar": ""
  },
  {
    "ID": 15,
    "Name": "DAO LA",
    "Twitter": "https://twitter.com/dao_la_",
    "Website": "https://linktr.ee/daola",
    "City": "Los Angeles, California",
    "Longitude": -118.242766,
    "Latitude": 34.0536909,
    "Avatar": ""
  },
  {
    "ID": 16,
    "Name": "CLT DAO",
    "Twitter": "https://twitter.com/clt_dao",
    "Website": "",
    "City": "Charlotte, North Carolina",
    "Longitude": -80.8430827,
    "Latitude": 35.2272086,
    "Avatar": ""
  },
  {
    "ID": 17,
    "Name": "ChicagoDAO",
    "Twitter": "https://twitter.com/chicagodao_io",
    "Website": "https://chicagodao.io/",
    "City": "Chicago, Illinois",
    "Longitude": -87.6244212,
    "Latitude": 41.8755616,
    "Avatar": ""
  },
  {
    "ID": 18,
    "Name": "Lisbon DAO",
    "Twitter": "https://twitter.com/Lisbon_DAO",
    "Website": "",
    "City": "Lisbon, Portugal",
    "Longitude": -9.1365919,
    "Latitude": 38.7077507,
    "Avatar": ""
  },
  {
    "ID": 19,
    "Name": "city3",
    "Twitter": "https://twitter.com/0xcity3",
    "Website": "",
    "City": "Oakland, California",
    "Longitude": -122.271356,
    "Latitude": 37.8044557,
    "Avatar": ""
  },
  {
    "ID": 20,
    "Name": "Miami DAO",
    "Twitter": "https://twitter.com/MiamiDAO",
    "Website": "",
    "City": "Miami, Florida",
    "Longitude": -80.19362,
    "Latitude": 25.7741728,
    "Avatar": ""
  },
  {
    "ID": 21,
    "Name": "BullCityDAO",
    "Twitter": "https://bullcitydao.xyz/",
    "Website": "",
    "City": "Durham, North Carolina",
    "Longitude": -78.9018053,
    "Latitude": 35.996653,
    "Avatar": ""
  },
  {
    "ID": 22,
    "Name": "DTX Collective",
    "Twitter": "https://twitter.com/DTX_collective",
    "Website": "",
    "City": "Dallas, Texas",
    "Longitude": -96.7968559,
    "Latitude": 32.7762719,
    "Avatar": ""
  },
  {
    "ID": 23,
    "Name": "NFTSYD",
    "Twitter": "https://twitter.com/NFTSYD",
    "Website": "https://linktr.ee/nftsydney",
    "City": "Sydney, Australia",
    "Longitude": 151.2082848,
    "Latitude": -33.8698439,
    "Avatar": ""
  },
  {
    "ID": 24,
    "Name": "NFTMELB",
    "Twitter": "https://twitter.com/nftmelb",
    "Website": "https://linktr.ee/nftmelb.io",
    "City": "Melbourne, Australia",
    "Longitude": 144.9631608,
    "Latitude": -37.8142176,
    "Avatar": ""
  },
  {
    "ID": 25,
    "Name": "DAOVOS",
    "Twitter": "https://twitter.com/daovoz",
    "Website": "https://daovoz.org/",
    "City": "Davos, Switzerland",
    "Longitude": 9.8236892,
    "Latitude": 46.796198,
    "Avatar": ""
  },
  {
    "ID": 26,
    "Name": "SojuDAO",
    "Twitter": "https://twitter.com/sojudao_",
    "Website": "https://link3.to/sojudao",
    "City": "Seoul, Korea",
    "Longitude": 126.9782914,
    "Latitude": 37.5666791,
    "Avatar": ""
  },
  {
    "ID": 27,
    "Name": "urbe.eth",
    "Twitter": "https://twitter.com/urbeEth",
    "Website": "https://linktr.ee/urbe.eth",
    "City": "Rome, Italy",
    "Longitude": 12.4829321,
    "Latitude": 41.8933203,
    "Avatar": ""
  },
  {
    "ID": 28,
    "Name": "NFTMKE",
    "Twitter": "https://twitter.com/nft_mke",
    "Website": "https://www.nftmke.io/",
    "City": "Milwaukee, Wisconsin",
    "Longitude": -87.922497,
    "Latitude": 43.0349931,
    "Avatar": ""
  },
  {
    "ID": 29,
    "Name": "Bu Zhi DAO",
    "Twitter": "https://twitter.com/buzhidao_tw",
    "Website": "https://link3.to/buzhidao",
    "City": "Taipei, Taiwan",
    "Longitude": 121.5636796,
    "Latitude": 25.0375198,
    "Avatar": ""
  },
  {
    "ID": 30,
    "Name": "AndinoDAO",
    "Twitter": "https://twitter.com/andinodao",
    "Website": "",
    "City": "Lima, Peru",
    "Longitude": -77.0365256,
    "Latitude": -12.0621065,
    "Avatar": ""
  },
  {
    "ID": 31,
    "Name": "Toronto DAO",
    "Twitter": "https://twitter.com/toronto_dao",
    "Website": "https://www.tdao.to/",
    "City": "Toronto, Canada",
    "Longitude": -79.3839347,
    "Latitude": 43.6534817,
    "Avatar": ""
  },
  {
    "ID": 32,
    "Name": "DAO TOKYO",
    "Twitter": "https://twitter.com/DAO_TOKYO_XYZ",
    "Website": "https://dao-tokyo.xyz/",
    "City": "Tokyo, Japan",
    "Longitude": 139.7594549,
    "Latitude": 35.6828387,
    "Avatar": ""
  },
  {
    "ID": 33,
    "Name": "Tulsa DAO",
    "Twitter": "https://twitter.com/tulsadao",
    "Website": "https://linktr.ee/tulsadao",
    "City": "Tulsa, Oklahoma",
    "Longitude": -95.9927436,
    "Latitude": 36.1563122,
    "Avatar": ""
  },
  {
    "ID": 34,
    "Name": "PDX DAO",
    "Twitter": "https://twitter.com/PDXDAO",
    "Website": "https://ethpdx.eth.limo/",
    "City": "Portland, Oregon",
    "Longitude": -122.674194,
    "Latitude": 45.5202471,
    "Avatar": "pdxdao.jpeg"
  },
  {
    "ID": 35,
    "Name": "Web3DC",
    "Twitter": "https://twitter.com/Web3DC",
    "Website": "https://www.web3dc.xyz/",
    "City": "Washington, D.C.",
    "Longitude": -77.0365427,
    "Latitude": 38.8950368,
    "Avatar": ""
  },
  {
    "ID": 36,
    "Name": "swissDAO",
    "Twitter": "https://twitter.com/swissDAOspace",
    "Website": "https://swissdao.space/",
    "City": "Zurich, Switzerland",
    "Longitude": 8.5410422,
    "Latitude": 47.3744489,
    "Avatar": ""
  },
  {
    "ID": 37,
    "Name": "CHS DAO",
    "Twitter": "https://twitter.com/chsdao",
    "Website": "",
    "City": "Charleston, South Carolina",
    "Longitude": -79.9402728,
    "Latitude": 32.7876012,
    "Avatar": ""
  },
  {
    "ID": 38,
    "Name": "San Diego DAO",
    "Twitter": "https://twitter.com/tveeeeeeeeee",
    "Website": "",
    "City": "San Diego, California",
    "Longitude": -117.1627728,
    "Latitude": 32.7174202,
    "Avatar": ""
  },
  {
    "ID": 39,
    "Name": "PretzelDAO",
    "Twitter": "https://linktr.ee/pretzeldao",
    "Website": "",
    "City": "Munich, Germany",
    "Longitude": 11.576124,
    "Latitude": 48.137154,
    "Avatar": ""
  }
 ]